City_ID,City,Lat,Lng,Max Temp,Humidity,Cloudiness,Wind Speed,Country,Date
0,chonchi,-42.6128,-73.8092,49.44,89,100,6.02,CL,1723492389
1,ducheng,23.2373,111.5317,78.01,94,100,1.28,CN,1723492389
2,mariental,-24.6333,17.9667,64.0,15,1,10.74,NA,1723492389
3,port-aux-francais,-49.35,70.2167,37.58,83,56,29.89,TF,1723492389
4,qulsary,46.9531,54.0198,73.65,55,31,15.3,KZ,1723492389
5,hovd,48.0056,91.6419,63.3,59,23,5.19,MN,1723492389
6,isafjordur,66.0755,-23.124,44.11,95,100,13.96,IS,1723492389
7,edinburgh of the seven seas,-37.0676,-12.3116,52.99,67,54,12.57,SH,1723492389
8,teknaf,20.8624,92.3058,79.07,89,100,3.42,BD,1723492389
9,carnarvon,-24.8667,113.6333,63.46,76,0,9.89,AU,1723492389
10,lititz,40.1573,-76.3069,80.64,47,40,13.8,US,1723492389
11,hawaiian paradise park,19.5933,-154.9731,75.72,92,100,5.75,US,1723492389
12,praia da vitoria,38.7333,-27.0667,80.85,61,20,8.39,PT,1723492390
13,georgetown,5.4112,100.3354,82.33,74,20,3.44,MY,1723492390
14,heniches'k,46.1759,34.8034,75.13,42,0,3.4,UA,1723492390
15,corinto,37.9407,22.9573,79.9,42,0,3.56,GR,1723492390
16,talnakh,69.4865,88.3972,58.8,61,100,3.85,RU,1723492390
17,mount pearl,47.5166,-52.7813,76.44,68,75,23.02,CA,1723492324
18,holualoa,19.6228,-155.9522,78.64,89,40,10.36,US,1723492390
19,tchintabaraden,15.8969,5.7985,85.14,58,40,15.14,NE,1723492390
20,susuman,62.7833,148.1667,50.74,83,91,4.56,RU,1723492390
21,port mathurin,-19.6833,63.4167,71.65,69,99,23.02,MU,1723492390
22,aasiaat,68.7098,-52.8699,42.03,71,4,13.15,GL,1723492390
23,guerrero negro,27.9769,-114.0611,83.84,50,0,12.28,MX,1723492390
24,ilulissat,69.2167,-51.1,62.62,31,20,16.11,GL,1723492390
25,udachny,66.4167,112.4,42.51,90,100,17.0,RU,1723492390
26,daru,-9.0763,143.2092,76.33,92,32,13.91,PG,1723492390
27,adamstown,-25.066,-130.1015,67.24,69,100,19.64,PN,1723492390
28,college,64.8569,-147.8028,53.58,68,75,11.5,US,1723492170
29,lamu,-2.2717,40.902,75.63,81,48,13.38,KE,1723492391
30,blackmans bay,-43.0167,147.3167,50.52,71,100,8.21,AU,1723492391
31,mejit,10.2753,170.8646,83.23,75,100,13.87,MH,1723492391
32,port elizabeth,-33.918,25.5701,52.09,86,0,2.3,ZA,1723492391
33,puerto natales,-51.7236,-72.4875,50.45,62,40,17.27,CL,1723492391
34,bilibino,68.0546,166.4372,35.15,82,100,17.67,RU,1723492391
35,bethel,41.3712,-73.414,74.59,70,75,5.75,US,1723492175
36,mali,12.079,-12.2982,62.02,94,84,4.0,GN,1723492391
37,bokovskaya,49.229,41.8306,60.13,53,0,5.37,RU,1723492391
38,afaahiti,-17.75,-149.2833,75.56,83,73,0.56,PF,1723492391
39,menongue,-14.6585,17.691,61.27,19,0,3.89,AO,1723492391
40,ushuaia,-54.8,-68.3,42.46,70,20,4.61,AR,1723492200
41,yurga,55.7231,84.8861,58.75,70,100,5.35,RU,1723492391
42,querqueville,49.6625,-1.6912,64.08,88,0,12.66,FR,1723492391
43,saint-remy-de-provence,43.7885,4.8317,82.06,51,0,2.3,FR,1723492391
44,tagta,41.6504,59.9164,87.75,33,75,13.8,TM,1723492391
45,lihue,21.9789,-159.3672,81.36,75,75,13.8,US,1723492392
46,gobabis,-22.45,18.9667,62.4,15,0,9.64,NA,1723492392
47,palikir - national government center,6.9248,158.1611,75.94,94,40,0.0,FM,1723492392
48,sanctuary point,-35.1114,150.629,54.19,86,70,2.44,AU,1723492392
49,alofi,-19.0595,-169.9187,69.69,73,20,8.05,NU,1723492392
50,west island,-12.1568,96.8225,78.78,73,20,11.5,CC,1723492392
51,emporia,38.4039,-96.1817,84.4,70,75,5.75,US,1723492315
52,muscat,23.6139,58.5922,88.57,68,44,7.27,OM,1723492352
53,thompson,55.7435,-97.8558,84.36,37,40,11.5,CA,1723492392
54,faridabad,28.4333,77.3167,83.53,78,100,5.55,IN,1723492392
55,tumut,-35.3,148.2167,48.02,90,23,4.76,AU,1723492392
56,boali,4.8005,18.1275,72.68,97,100,3.78,CF,1723492392
57,namtsy,62.7161,129.6658,61.93,43,100,2.3,RU,1723492392
58,lompoc,34.6391,-120.4579,72.52,58,20,6.91,US,1723492392
59,mhamid,29.82,-5.72,98.01,18,42,27.98,MA,1723492392
60,port augusta,-32.5,137.7667,51.62,64,0,4.47,AU,1723492392
61,puerto ayora,-0.7393,-90.3518,69.55,93,67,7.0,EC,1723492393
62,nili,33.7218,66.1302,70.83,16,0,6.42,AF,1723492393
63,vizinga,61.0749,50.1031,51.39,88,42,5.64,RU,1723492393
64,weno,7.4515,151.8468,80.55,78,100,3.44,FM,1723492393
65,hadibu,12.65,54.0333,79.68,76,66,15.14,YE,1723492393
66,mizdah,31.4451,12.9801,80.73,45,4,16.6,LY,1723492393
67,urangan,-25.3,152.9,66.34,94,100,23.96,AU,1723492393
68,vilyuchinsk,52.9306,158.4028,56.34,94,100,1.19,RU,1723492393
69,longyearbyen,78.2186,15.6401,51.64,82,75,5.75,SJ,1723492393
70,regina,50.4501,-104.6178,81.03,31,75,15.01,CA,1723492150
71,albany,42.6001,-73.9662,69.58,69,100,5.01,US,1723492273
72,waitangi,-43.9535,-176.5597,40.82,93,99,8.99,NZ,1723492393
73,yellowknife,62.456,-114.3525,79.32,36,100,10.36,CA,1723492385
74,kas,36.2018,29.6377,84.78,52,0,8.61,TR,1723492393
75,elkins,38.9259,-79.8467,76.89,49,75,9.22,US,1723492194
76,leua,48.2156,18.6071,76.23,65,82,5.73,SK,1723492394
77,tame,6.461,-71.73,83.35,69,94,5.95,CO,1723492394
78,saudarkrokur,65.7461,-19.6394,49.39,93,100,6.46,IS,1723492394
79,grytviken,-54.2811,-36.5092,15.57,66,100,9.86,GS,1723492394
80,jamestown,42.097,-79.2353,74.01,55,40,11.5,US,1723492114
81,mahina,-17.5065,-149.489,78.57,83,75,16.11,PF,1723492394
82,whitehorse,60.7161,-135.0538,61.57,55,75,6.91,CA,1723492394
83,tromso,69.6496,18.957,60.82,82,75,2.3,NO,1723492394
84,invercargill,-46.4,168.35,40.01,86,77,8.01,NZ,1723492394
85,cozumel,20.5083,-86.9458,91.47,62,40,10.36,MX,1723492394
86,cam ranh,11.9214,109.1591,80.56,83,20,0.0,VN,1723492394
87,port macquarie,-31.4333,152.9167,63.07,90,100,5.99,AU,1723492394
88,iqaluit,63.7506,-68.5145,44.33,70,20,5.75,CA,1723492269
89,yueyang,29.3333,113.0919,77.54,88,11,4.47,CN,1723492394
90,bardai,11.65,7.2333,72.46,90,100,10.16,NG,1723492395
91,guatrache,-37.6678,-63.5302,60.04,32,1,14.76,AR,1723492395
92,margaret river,-33.95,115.0667,57.54,73,86,13.38,AU,1723492395
93,tampakan,6.4442,124.9264,74.44,96,0,1.52,PH,1723492395
94,samtse,26.899,89.0995,75.65,95,100,2.01,BT,1723492395
95,tiksi,71.6872,128.8694,35.49,99,100,10.31,RU,1723492395
96,la'ie,21.6477,-157.9253,82.11,74,94,8.99,US,1723492158
97,canutama,-6.5339,-64.3831,99.97,20,3,5.23,BR,1723492395
98,fale old settlement,-9.3852,-171.2468,81.46,79,57,15.99,TK,1723492395
99,wailua homesteads,22.0669,-159.378,80.74,75,75,13.8,US,1723492395
100,priargunsk,50.3691,119.1012,62.33,71,0,2.35,RU,1723492395
101,ancud,-41.8697,-73.8203,49.69,81,100,10.56,CL,1723492395
102,conceicao do araguaia,-8.2578,-49.2647,99.19,18,62,9.57,BR,1723492395
103,sitka,57.0531,-135.33,62.49,77,75,12.66,US,1723492395
104,marica,-22.9194,-42.8186,66.31,59,66,20.04,BR,1723492395
105,sinabang,2.4803,96.3801,77.88,85,44,2.44,ID,1723492396
106,veinticinco de mayo,-35.4323,-60.1727,55.63,39,0,6.02,AR,1723492396
107,enewetak,11.3474,162.3373,83.26,77,100,15.99,MH,1723492396
108,batesville,35.7698,-91.641,83.95,58,0,5.75,US,1723492396
109,zunyi,27.6867,106.9072,69.4,89,12,0.85,CN,1723492396
110,zouerate,22.7187,-12.4521,103.32,7,5,8.21,MR,1723492396
111,polyarnyy,69.1989,33.4478,60.13,73,99,5.91,RU,1723492396
112,kassala,15.451,36.4,82.98,68,100,4.59,SD,1723492396
113,at taj,24.2049,23.2857,93.97,40,13,3.67,LY,1723492396
114,kill devil hills,36.0307,-75.676,72.99,93,100,5.75,US,1723492332
115,bikenibeu village,1.3673,173.1241,84.16,79,40,4.61,KI,1723492396
116,obock,12.25,43.0833,88.54,41,100,13.6,DJ,1723492396
117,mana,5.6592,-53.7767,84.22,72,2,13.8,GF,1723492396
118,road town,18.4167,-64.6167,84.24,79,20,16.11,VG,1723492396
119,dudinka,69.4058,86.1778,49.33,76,75,5.26,RU,1723492396
120,port arthur,38.8,121.2667,78.51,85,4,7.34,CN,1723492175
121,champerico,14.3,-91.9167,85.64,72,91,7.47,GT,1723492396
122,ouesso,1.6136,16.0517,76.19,72,48,2.59,CG,1723492397
123,celestun,20.8667,-90.4,83.43,78,86,13.98,MX,1723492397
124,codrington,-38.2667,141.9667,54.79,64,45,16.87,AU,1723492397
125,ambovombe,-25.1667,46.0833,67.05,85,0,1.92,MG,1723492397
126,hasaki,35.7333,140.8333,80.55,90,5,8.43,JP,1723492397
127,mumbwa,-14.9783,27.0619,65.28,24,0,3.91,ZM,1723492397
128,saipan,15.1355,145.701,83.1,78,0,4.61,MP,1723492397
129,yerofey pavlovich,53.9667,121.9667,59.97,79,5,1.32,RU,1723492397
130,nikel,69.4128,30.222,59.63,73,61,5.08,RU,1723492397
131,valparaiso,-33.0393,-71.6273,64.04,61,0,8.05,CL,1723492005
132,lambarene,-0.7001,10.2406,78.82,73,100,7.94,GA,1723492397
133,las palmas,28.4204,-14.0131,74.19,73,0,16.11,ES,1723492397
134,fort bragg,35.139,-79.006,84.04,72,75,9.22,US,1723492397
135,avarua,-21.2078,-159.775,71.65,60,100,5.75,CK,1723492397
136,la ronge,55.1001,-105.2842,80.85,28,0,10.36,CA,1723492397
137,severo-yeniseyskiy,60.3725,93.0408,46.02,97,6,4.36,RU,1723492398
138,keflavik,64.0049,-22.5624,54.03,82,0,18.41,IS,1723492398
139,vorgashor,67.5833,63.95,50.43,77,99,11.14,RU,1723492398
140,el calafate,-50.3408,-72.2768,39.06,98,98,5.08,AR,1723492398
141,khilok,51.3674,110.4676,63.1,64,12,2.98,RU,1723492398
142,uturoa,-16.7333,-151.4333,77.5,82,100,7.4,PF,1723492398
143,fortuna,40.5982,-124.1573,68.94,61,75,17.27,US,1723492398
144,ribeira grande,38.5167,-28.7,77.4,73,40,14.97,PT,1723492398
145,nampula,-15.1165,39.2666,65.5,82,0,3.69,MZ,1723492398
146,constantia,44.1833,28.65,76.14,70,1,10.87,RO,1723492398
147,spruce grove,53.5334,-113.9187,82.74,41,0,9.22,CA,1723492265
148,yacuiba,-22.038,-63.6797,74.17,27,36,5.75,BO,1723492398
149,coquimbo,-29.9533,-71.3436,55.13,100,100,10.36,CL,1723492398
150,al kharijah,25.4514,30.5464,92.77,20,0,11.12,EG,1723492399
151,touros,-5.1989,-35.4608,78.24,77,12,11.52,BR,1723492399
152,cabo san lucas,22.8909,-109.9124,85.89,65,85,9.93,MX,1723492293
153,ust-nera,64.5667,143.2,52.59,95,71,4.07,RU,1723492399
154,berezovyy,51.6667,135.7,62.51,99,100,2.59,RU,1723492399
155,chamical,-30.36,-66.314,68.49,14,0,17.78,AR,1723492399
156,kashgar,39.4547,75.9797,83.41,28,40,13.42,CN,1723492399
157,sabang,5.8933,95.3214,82.67,74,98,6.8,ID,1723492399
158,flying fish cove,-10.4217,105.6791,76.68,78,100,12.66,CX,1723492399
159,spring creek,40.7266,-115.5859,85.71,17,100,8.01,US,1723492399
160,qaqortoq,60.7167,-46.0333,47.44,78,100,6.46,GL,1723492399
161,holly springs,35.6513,-78.8336,85.91,69,79,1.01,US,1723492155
162,san-pedro,4.7485,-6.6363,74.86,95,94,9.22,CI,1723492399
163,mezhdurechenskiy,59.6,65.9333,56.07,75,96,4.59,RU,1723492400
164,thinadhoo,0.5333,72.9333,82.04,77,100,20.38,MV,1723492400
165,katsuura,35.1333,140.3,80.46,92,6,7.99,JP,1723492400
166,ulsteinvik,62.3432,5.8487,63.75,76,100,1.99,NO,1723492400
167,el charco,2.4769,-78.1105,81.52,81,75,8.19,CO,1723492400
168,igarka,67.4667,86.5833,52.68,94,100,8.81,RU,1723492400
169,iskateley,67.6803,53.1512,44.73,89,99,11.34,RU,1723492400
170,pitimbu,-7.4706,-34.8086,77.58,79,3,8.19,BR,1723492400
171,dire dawa,9.5931,41.8661,74.23,66,84,13.91,ET,1723492400
172,arraial do cabo,-22.9661,-42.0278,69.76,56,0,19.57,BR,1723492400
173,haiku-pauwela,20.9219,-156.3051,84.16,67,40,17.27,US,1723492400
174,tralee,52.2704,-9.7026,60.58,79,43,10.87,IE,1723492400
175,shengli,37.4564,118.4856,79.36,76,0,2.91,CN,1723492400
176,tisul',55.7611,88.3122,51.6,91,71,3.38,RU,1723492400
177,puerto lempira,15.2667,-83.7667,83.26,82,98,9.04,HN,1723492175
178,kudahuvadhoo,2.6708,72.8944,79.34,86,100,21.88,MV,1723492400
179,ristiina,61.5058,27.2464,53.82,93,8,4.88,FI,1723492401
180,panauti,27.5814,85.5124,71.92,94,75,0.0,NP,1723492401
181,lincheng,19.9078,109.6858,81.1,85,100,4.83,CN,1723492401
182,griffith,41.5284,-87.4237,77.95,53,0,3.44,US,1723492401
183,sychevka,55.8252,34.2736,50.97,91,9,5.86,RU,1723492401
184,an nimas,19.1455,42.1201,65.32,75,50,2.51,SA,1723492401
185,rabo de peixe,37.8,-25.5833,72.91,73,20,12.66,PT,1723492401
186,vadso,70.0744,29.7487,51.96,93,0,8.05,NO,1723492401
187,mount isa,-20.7333,139.5,58.77,67,0,5.75,AU,1723492401
188,pandan,14.0453,124.1694,81.18,84,88,5.64,PH,1723492401
189,tahe,52.3333,124.7333,58.32,82,0,2.68,CN,1723492401
190,aksu,41.1231,80.2644,73.04,51,100,9.71,CN,1723492401
191,kazlu ruda,54.7667,23.5,54.59,87,0,7.99,LT,1723492401
192,kasane,-17.8167,25.15,66.16,17,0,3.0,BW,1723492401
193,ngambe,4.2333,10.6167,69.13,99,100,2.71,CM,1723492401
194,new norfolk,-42.7826,147.0587,47.48,80,100,3.53,AU,1723492401
195,acapulco de juarez,16.8634,-99.8901,80.01,78,91,3.89,MX,1723492401
196,shalazhi,43.0978,45.3608,73.09,62,100,6.22,RU,1723492402
197,takoradi,4.8845,-1.7554,75.29,91,23,9.62,GH,1723492402
198,dryden,49.7833,-92.7503,79.09,44,20,12.66,CA,1723492402
199,rongelap,11.1635,166.8941,83.05,76,100,8.72,MH,1723492402
200,alice springs,-23.7,133.8833,42.35,81,0,0.0,AU,1723492402
201,aioun,16.6614,-9.6149,94.71,37,86,6.82,MR,1723492402
202,bredasdorp,-34.5322,20.0403,50.14,86,100,3.56,ZA,1723492402
203,zamora,-4.0692,-78.9567,74.17,78,51,4.81,EC,1723492402
204,boguchany,58.3814,97.4531,53.22,92,15,1.99,RU,1723492402
205,saint-francois,46.4154,3.9054,78.24,70,1,0.0,FR,1723492135
206,tazovsky,67.4667,78.7,51.48,99,100,4.81,RU,1723492402
207,dolzhanskaya,46.6311,37.8039,77.38,44,0,13.69,RU,1723492402
208,axim,4.8699,-2.2405,75.81,91,37,9.19,GH,1723492402
209,remire-montjoly,4.9167,-52.2667,89.64,62,0,13.8,GF,1723492402
210,kirensk,57.7853,108.1119,59.67,85,99,3.29,RU,1723492402
211,shamva,-17.3116,31.5756,62.73,25,0,3.11,ZW,1723492403
212,novodvinsk,64.4165,40.8122,56.98,70,43,5.06,RU,1723492403
213,afua,-0.1567,-50.3867,87.98,58,67,8.37,BR,1723492403
214,lensk,60.7253,114.9278,63.52,93,90,4.99,RU,1723492403
215,general conesa,-40.1,-64.4333,67.42,20,52,20.54,AR,1723492403
216,yelizovo,53.1873,158.3805,53.74,100,75,2.24,RU,1723492403
217,sassandra,4.95,-6.0833,74.59,95,93,9.78,CI,1723492403
218,chimoio,-19.1164,33.4833,71.46,60,0,3.09,MZ,1723492403
219,banamba,13.55,-7.45,79.68,77,100,8.01,ML,1723492403
220,bijrauni,24.9167,77.6333,76.86,92,78,6.8,IN,1723492403
221,randudongkal,-7.0981,109.3243,66.36,84,21,3.94,ID,1723492403
222,mojo,8.6,39.1167,62.51,90,95,4.63,ET,1723492403
223,nueva villa de padilla,24.0167,-98.7833,95.18,42,77,8.88,MX,1723492403
224,st. john's,47.5649,-52.7093,77.27,65,75,23.02,CA,1723492344
225,hithadhoo,-0.6,73.0833,82.08,78,100,16.35,MV,1723492404
226,bel ombre,-4.6167,55.4167,78.64,83,40,17.27,SC,1723492404
227,la libertad,-2.2333,-80.9,76.66,73,75,10.36,EC,1723492404
228,geraldton,-28.7667,114.6,50.41,93,0,8.05,AU,1723492404
229,khalkhal,37.6189,48.5258,63.19,81,4,5.73,IR,1723492404
230,key west,24.5557,-81.7826,91.4,66,20,10.36,US,1723492404
231,san juan,-31.5375,-68.5364,72.28,11,1,7.99,AR,1723492232
232,belmonte,-15.8631,-38.8828,76.66,81,0,9.66,BR,1723492404
233,petrove,48.3247,33.2562,62.74,40,2,3.0,UA,1723492404
234,necochea,-38.5473,-58.7368,51.13,58,17,4.59,AR,1723492404
235,zungeru,9.8128,6.1558,74.91,96,100,3.98,NG,1723492404
236,bengkulu,-3.8004,102.2655,73.65,91,99,7.87,ID,1723492404
237,scottburgh,-30.2867,30.7532,63.14,75,100,7.61,ZA,1723492405
238,lebu,-37.6167,-73.65,52.0,74,100,11.12,CL,1723492405
239,nova sintra,14.8667,-24.7167,80.74,80,23,7.63,CV,1723492224
240,eirunepe,-6.6603,-69.8736,95.59,27,19,5.26,BR,1723492405
241,markovo,57.3206,107.0881,58.28,92,95,3.04,RU,1723492405
242,chernyshevsk,52.5243,117.0174,65.16,53,24,1.36,RU,1723492405
243,tamanrasset,22.785,5.5228,85.91,32,40,16.11,DZ,1723492405
244,merizo village,13.2658,144.6691,77.38,95,89,6.78,GU,1723492405
245,balqash,46.8481,74.995,71.26,57,0,10.02,KZ,1723492405
246,irymple,-34.25,142.1667,48.09,77,0,10.47,AU,1723492405
247,vidyayevo,69.3191,32.8049,56.68,82,100,5.17,RU,1723492405
248,hermanus,-34.4187,19.2345,54.37,84,100,6.38,ZA,1723492405
249,la sarre,48.8002,-79.1996,75.85,38,100,9.64,CA,1723492405
250,ondjiva,-17.0667,15.7333,66.51,12,0,7.87,AO,1723492405
251,'alaqahdari dishu,30.4374,63.313,94.41,10,4,7.78,AF,1723492406
252,tecuala,22.3986,-105.4569,90.05,64,93,8.3,MX,1723492406
253,greenville,35.6127,-77.3663,82.13,82,100,8.05,US,1723492136
254,otaki,-40.7583,175.15,44.94,76,10,5.01,NZ,1723492406
255,bom sucesso,-21.0331,-44.7581,69.89,15,100,10.11,BR,1723492406
256,papatowai,-46.5619,169.4708,39.22,91,26,7.9,NZ,1723492406
257,victorica,-36.2151,-65.4359,66.25,20,5,20.49,AR,1723492406
258,baker city,44.7749,-117.8344,82.11,26,2,5.75,US,1723492129
259,frenda,35.0654,1.0495,78.84,40,3,3.65,DZ,1723492406
260,tymovskoye,50.8456,142.655,57.2,97,73,1.95,RU,1723492406
261,de witt,41.8234,-90.5382,78.73,57,0,0.0,US,1723492406
262,howrah,22.5892,88.3103,84.2,89,40,4.61,IN,1723492406
263,anadyr,64.75,177.4833,52.3,76,75,15.66,RU,1723492406
264,papayal,-4.0761,-80.7361,82.49,53,38,8.57,PE,1723492406
265,derzhavinsk,51.1,66.3167,68.74,49,30,12.73,KZ,1723492406
266,sandnessjoen,66.0217,12.6316,57.42,94,75,2.3,NO,1723492406
267,madison,34.7334,-86.5667,86.95,47,0,6.91,US,1723492407
268,olonkinbyen,70.9221,-8.7187,41.07,91,100,12.15,SJ,1723492407
269,nemuro,43.3236,145.575,64.76,100,100,8.16,JP,1723492407
270,kingston,17.997,-76.7936,90.55,62,40,18.41,JM,1723492233
271,aegina,37.7467,23.4275,83.01,59,0,14.32,GR,1723492407
272,labytnangi,66.6572,66.4183,55.47,80,100,10.63,RU,1723492407
273,quibdo,5.6947,-76.6611,75.54,100,75,5.75,CO,1723492407
274,tofol,5.3248,163.0078,83.03,73,97,9.57,FM,1723492407
275,port alfred,-33.5906,26.891,57.69,70,100,8.66,ZA,1723492407
276,waldmunchen,49.3786,12.7042,70.92,76,52,1.79,DE,1723492407
277,gadzhiyevo,69.2551,33.3362,60.22,75,100,5.32,RU,1723492407
278,tommot,58.9564,126.2925,63.19,73,17,2.57,RU,1723492407
279,kodinsk,58.6881,99.1844,52.79,92,10,3.2,RU,1723492407
280,nelson bay,-32.7167,152.15,62.11,89,78,17.0,AU,1723492407
281,maracacume,-2.0428,-45.9592,85.95,57,97,7.96,BR,1723492408
282,masterton,-40.9597,175.6575,44.22,82,100,11.01,NZ,1723492408
283,levuka,50.1834,-105.4011,82.13,32,100,10.36,CA,1723492408
284,sretensk,52.2453,117.7093,62.31,64,0,2.44,RU,1723492408
285,wodonga,-36.1167,146.8833,44.96,100,7,4.07,AU,1723492408
286,hvardiiske,45.1209,34.0185,66.61,55,0,6.06,UA,1723492408
287,smithers,54.7804,-127.1743,68.32,56,75,9.22,CA,1723492408
288,juegang,32.3174,121.1855,79.75,93,100,6.29,CN,1723492408
289,bukama,-9.2,25.85,77.49,26,0,3.44,CD,1723492408
290,melekeok village,7.4957,134.6367,75.76,94,40,0.0,PW,1723492408
291,okhotsk,59.3833,143.3,53.17,83,2,3.02,RU,1723492408
292,san jose del guaviare,2.5729,-72.6459,79.68,88,51,2.77,CO,1723492408
293,panjab,34.388,67.0233,52.09,40,0,5.82,AF,1723492408
294,verkhotur'ye,58.8627,60.8054,53.29,98,100,10.6,RU,1723492408
295,achinsk,56.2694,90.4993,52.74,90,47,3.0,RU,1723492409
296,envira,-7.3,-70.2167,93.43,30,24,4.97,BR,1723492409
297,maridi,4.9158,29.4742,65.88,93,70,4.16,SS,1723492409
298,chikola,43.1906,43.9209,70.16,53,99,6.71,RU,1723492409
299,anatuya,-28.4606,-62.8347,69.78,16,0,8.03,AR,1723492409
300,camalu,30.85,-116.0667,74.82,66,7,8.39,MX,1723492409
301,winchester,51.0651,-1.3187,72.97,65,0,8.05,GB,1723492409
302,sovetskiy,61.3614,63.5842,52.95,89,98,3.76,RU,1723492409
303,badger,64.8,-147.5333,55.98,75,75,11.5,US,1723492409
304,petropavlovsk-kamchatsky,53.0452,158.6483,52.39,100,75,2.24,RU,1723492409
305,lata,40.1629,-8.3327,63.36,96,81,3.8,PT,1723492409
306,n'zeto,-7.2312,12.8666,70.0,88,2,6.67,AO,1723492409
307,akjoujt,19.6969,-14.4164,90.77,28,84,18.41,MR,1723492409
308,taroa,8.7058,171.2275,82.72,78,82,13.85,MH,1723492409
309,antsiranana,-12.2787,49.2917,73.29,79,4,15.75,MG,1723492409
310,wellington,-41.2866,174.7756,49.66,67,20,31.07,NZ,1723492250
311,kavieng,-2.5744,150.7967,81.36,82,97,17.36,PG,1723492410
312,chiredzi,-21.05,31.6667,68.72,33,0,6.06,ZW,1723492410
313,voznesenskoye,54.89,42.7569,55.54,93,100,13.2,RU,1723492410
314,tan-tan,28.438,-11.1032,70.45,83,6,14.9,MA,1723492410
315,prince george,53.9166,-122.753,72.84,56,0,3.44,CA,1723492410
316,dutse,11.7594,9.3392,75.97,82,100,8.21,NG,1723492410
317,brokopondo,4.75,-55.1667,90.48,50,39,2.3,SR,1723492410
318,neiafu,-18.65,-173.9833,72.28,83,75,5.75,TO,1723492410
319,la passe,45.5549,-0.8967,68.18,92,4,6.82,FR,1723492410
320,kodiak,57.79,-152.4072,56.71,58,0,16.11,US,1723492410
321,eduardo castex,-35.915,-64.2945,64.2,25,6,14.38,AR,1723492410
322,cobija,-11.0267,-68.7692,87.98,40,20,9.22,BO,1723492410
323,schallstadt,47.9598,7.7509,68.07,90,100,9.19,DE,1723492410
324,zaozersk,69.4005,32.4476,55.06,85,67,4.74,RU,1723492410
325,napili-honokowai,20.9708,-156.6705,81.18,79,7,13.87,US,1723492410
326,minab,27.1467,57.0801,89.92,74,19,3.44,IR,1723492410
327,annau,37.8876,58.516,87.3,45,75,9.22,TM,1723492411
328,ormara,25.2088,64.6357,82.89,85,100,13.56,PK,1723492411
329,aswan,24.0934,32.907,101.5,20,6,16.11,EG,1723492411
330,ntcheu,-14.8203,34.6359,66.31,38,0,1.61,MW,1723492411
331,yuzhno-kurilsk,44.0306,145.8556,65.17,100,100,4.14,RU,1723492411
332,geneina,13.45,22.45,74.82,81,100,6.33,SD,1723492411
333,qamdo,31.1667,97.2333,42.8,59,4,2.46,CN,1723492411
334,ihosy,-22.4,46.1167,61.66,44,0,4.81,MG,1723492411
335,dazhou,31.2159,107.5009,75.61,89,0,4.27,CN,1723492132
336,kendari,-3.945,122.4989,71.15,95,29,1.9,ID,1723492411
337,palangkaraya,-2.2,113.8333,72.66,96,46,2.89,ID,1723492411
338,torghay,49.6339,63.4981,79.5,35,62,11.77,KZ,1723492411
339,boise,43.6135,-116.2035,90.21,27,0,9.22,US,1723492411
340,hilo,19.7297,-155.09,75.09,100,100,5.75,US,1723492411
341,gracemere,-23.4333,150.45,66.38,100,75,8.05,AU,1723492411
342,palmer,42.1584,-72.3287,77.14,46,75,8.05,US,1723492345
343,mkushi,-13.6202,29.3939,62.64,35,0,4.83,ZM,1723492412
344,sisimiut,66.9395,-53.6735,47.95,69,16,3.94,GL,1723492412
345,soderhamn,61.3037,17.0592,62.19,66,93,8.9,SE,1723492412
346,tangalle,6.024,80.7911,77.67,91,100,7.65,LK,1723492412
347,sao felix do xingu,-6.6447,-51.995,95.0,25,87,4.18,BR,1723492412
348,kismayo,-0.3582,42.5454,77.4,77,27,17.49,SO,1723492412
349,ribeira brava,32.65,-17.0667,77.72,90,44,3.04,PT,1723492412
350,yokadouma,3.5167,15.05,70.27,96,56,2.75,CM,1723492412
351,atafu village,-8.5421,-172.5159,82.02,77,17,13.56,TK,1723492412
352,nouadhibou,20.931,-17.0347,73.38,83,100,13.8,MR,1723492412
353,northam,51.0333,-4.2167,60.62,85,14,7.31,GB,1723492412
354,charlestown,-32.95,151.6667,62.69,95,100,1.01,AU,1723492412
355,kutum,14.2,24.6667,73.72,76,99,12.5,SD,1723492412
356,blantyre,-15.785,35.0085,69.93,28,0,7.45,MW,1723492412
357,manokwari,-0.8667,134.0833,77.9,80,56,5.17,ID,1723492412
358,baishishan,43.5833,127.5667,67.77,99,75,0.4,CN,1723492413
359,narra,9.3167,118.4,77.54,87,85,2.64,PH,1723492413
360,westport,41.1415,-73.3579,76.15,69,76,5.99,US,1723492285
361,port lincoln,-34.7333,135.8667,61.03,59,100,13.98,AU,1723492128
362,la isla,18.6,-96.15,84.88,76,100,5.91,MX,1723492413
363,hamilton,39.1834,-84.5333,83.91,44,0,10.36,US,1723492231
364,opuwo,-18.0607,13.84,71.35,12,0,8.01,NA,1723492205
365,balabac,7.9868,117.0645,80.47,82,61,0.65,PH,1723492413
366,mount gambier,-37.8333,140.7667,55.89,55,99,11.59,AU,1723492413
367,kuruman,-27.4524,23.4325,51.33,19,58,3.22,ZA,1723492413
368,port saint john's,-31.6229,29.5448,59.79,73,42,8.48,ZA,1723492413
369,hammerfest,70.6634,23.6821,63.05,77,100,3.44,NO,1723492413
370,pisco,-13.7,-76.2167,63.01,88,100,8.05,PE,1723492413
371,pacific grove,36.6177,-121.9166,60.42,91,100,9.22,US,1723492413
372,fleurance,43.8482,0.663,75.04,99,15,6.85,FR,1723492413
373,veraval,20.9,70.3667,81.3,83,100,14.52,IN,1723492414
374,muang xay,20.7,101.9833,71.91,100,100,1.12,LA,1723492414
375,hermoso campo,-27.6082,-61.3444,67.95,23,0,7.52,AR,1723492221
376,kyaukse,21.6,96.1333,77.74,88,100,3.22,MM,1723492414
377,mahibadhoo,3.7833,72.9667,78.28,89,100,21.43,MV,1723492414
378,katima mulilo,-17.5,24.2667,67.86,15,0,4.92,NA,1723492414
379,twon-brass,4.3151,6.2418,78.17,83,100,14.81,NG,1723492414
380,santa rosa de cabal,4.8681,-75.6214,76.24,63,75,4.61,CO,1723492414
381,medina de pomar,42.9294,-3.488,64.54,94,100,4.45,ES,1723492414
382,parabel',58.6978,81.4825,54.75,69,95,5.17,RU,1723492414
383,kapuskasing,49.4169,-82.4331,75.29,53,75,6.91,CA,1723492414
384,lucapa,-8.4192,20.7447,74.64,19,78,1.28,AO,1723492414
385,shanga,11.2106,4.5788,77.05,90,100,5.91,NG,1723492414
386,pamandzi,-12.7967,45.2794,76.78,83,0,4.61,YT,1723492414
387,metlili chaamba,32.2667,3.6333,101.34,16,75,16.11,DZ,1723492414
388,abomey,7.1829,1.9912,75.85,78,93,11.14,BJ,1723492415
389,dumai,1.6833,101.45,75.29,95,76,3.02,ID,1723492415
390,uporovo,56.3109,66.2693,60.13,80,100,14.79,RU,1723492415
391,gunjur,13.2019,-16.7339,82.47,83,75,13.8,GM,1723492415
392,jacksonville,30.3322,-81.6556,93.24,66,75,9.22,US,1723491902
393,port-vila,-17.7338,168.3219,73.0,78,100,11.5,VU,1723492415
394,batie,9.8833,-2.9167,74.43,95,100,1.36,BF,1723492415
395,klyuchi,52.2667,79.1667,63.63,87,100,4.68,RU,1723492415
396,morondava,-20.2833,44.2833,72.72,56,0,12.06,MG,1723492415
397,el obeid,13.1842,30.2167,78.06,73,69,2.57,SD,1723492415
398,richards bay,-28.783,32.0377,66.07,71,100,2.93,ZA,1723492415
399,bemidji,47.4736,-94.8803,80.06,48,75,3.44,US,1723492388
400,sidi alouane,35.3751,10.939,81.86,64,8,11.5,TN,1723492415
401,hantsavichy,52.758,26.43,58.55,64,37,6.64,BY,1723492416
402,kabinda,-6.1333,24.4833,76.73,25,52,1.43,CD,1723492416
403,villa ojo de agua,-29.5,-63.6938,62.04,20,0,11.59,AR,1723492416
404,boyabat,41.4689,34.7667,65.26,85,0,2.91,TR,1723492416
405,novosergiyevka,52.0934,53.6528,60.82,60,49,7.23,RU,1723492416
406,beruniy,41.6911,60.7525,82.36,39,40,6.91,UZ,1723492416
407,tarawa,1.419,172.984,84.29,79,40,4.61,KI,1723492416
408,sechura,-5.5569,-80.8222,74.68,58,42,15.19,PE,1723492416
409,port hedland,-20.3167,118.5667,62.65,100,68,3.44,AU,1723492416
410,tolanaro,-25.0319,46.9987,68.07,83,0,4.61,MG,1723492416
411,rikaze,29.25,88.8833,53.46,79,100,7.02,CN,1723492416
412,byron bay,-28.65,153.6167,64.02,84,100,10.22,AU,1723492416
413,paracuru,-3.41,-39.0306,79.61,71,1,14.7,BR,1723492416
414,mizan teferi,6.9833,35.5833,60.75,97,94,2.33,ET,1723492416
415,antofagasta,-23.65,-70.4,59.52,71,53,3.76,CL,1723492213
416,kourou,5.1552,-52.6478,83.95,69,31,11.18,GF,1723492291
417,pierre,44.3683,-100.351,77.92,52,75,8.05,US,1723492417
418,les sables-d'olonne,46.6667,-1.8333,66.76,93,24,10.87,FR,1723492417
419,bathsheba,13.2167,-59.5167,79.41,94,40,2.3,BB,1723492417
420,utrik,11.2278,169.8474,82.65,78,100,16.8,MH,1723492417
421,mgandu,-5.95,34.1333,67.19,44,5,5.03,TZ,1723492417
422,vorkuta,67.5,64.0,51.22,75,100,10.27,RU,1723492417
423,mitu,1.1983,-70.1733,78.21,90,95,2.48,CO,1723492417
424,plottier,-38.9667,-68.2333,66.11,26,0,2.3,AR,1723492417
425,pahlgam,34.0333,75.3333,55.02,89,24,3.11,IN,1723492417
426,nikolayevsk-on-amure,53.1406,140.73,57.76,99,100,2.26,RU,1723492417
427,garden city,42.3256,-83.331,80.85,51,75,10.36,US,1723492339
428,motueka,-41.1333,173.0167,40.57,81,32,5.84,NZ,1723492417
429,harstad,68.799,16.5293,58.62,97,68,5.99,NO,1723492417
430,lobujya,27.95,86.8167,36.14,93,100,2.21,NP,1723492417
431,namibe,-15.1961,12.1522,67.3,83,93,4.56,AO,1723492417
432,kerikeri,-35.2268,173.9474,48.9,92,63,1.01,NZ,1723492417
433,yanda bayo,11.5071,10.7459,74.82,85,100,8.59,NG,1723492417
434,bunbury,-33.3333,115.6333,57.22,77,51,10.0,AU,1723492418
435,san andres,12.5847,-81.7006,84.22,79,20,9.22,CO,1723492418
436,colonia,50.9333,6.95,85.96,59,0,2.3,DE,1723492418
437,saint-gely-du-fesc,43.6927,3.8049,77.45,83,0,6.91,FR,1723492418
438,knoxville,35.9606,-83.9207,86.13,52,20,9.22,US,1723492158
439,rabak,13.1809,32.74,81.21,66,100,4.94,SD,1723492418
440,takaungu,-3.6837,39.8566,75.33,81,5,13.82,KE,1723492418
441,tateyama,34.9833,139.8667,81.73,90,1,6.62,JP,1723492418
442,forbes,-33.3833,148.0167,52.21,83,67,5.7,AU,1723492418
443,bodo,67.28,14.405,59.95,91,40,4.61,NO,1723492418
444,kone,-21.0595,164.8658,67.59,72,100,7.07,NC,1723492418
445,nema,57.5067,50.5011,55.0,97,100,11.27,RU,1723492418
446,khandyga,62.6667,135.6,56.84,85,88,2.64,RU,1723492418
447,wajir,1.7471,40.0573,83.75,39,81,22.77,KE,1723492418
448,buritizeiro,-17.3511,-44.9622,83.97,8,56,7.11,BR,1723492156
449,chabahar,25.2919,60.643,81.28,84,69,13.27,IR,1723492419
450,alvorada,-12.48,-49.1247,97.36,15,0,8.21,BR,1723492419
451,choma,-16.8065,26.9531,63.32,21,0,1.34,ZM,1723492419
452,malmberget,67.1753,20.6549,57.76,88,20,6.91,SE,1723492419
453,ghanzi,-21.5667,21.7833,64.0,15,0,6.71,BW,1723492419
454,mangrol,21.1167,70.1167,81.23,84,100,16.33,IN,1723492419
455,stanley,54.868,-1.6985,64.42,75,20,8.05,GB,1723492419
456,san patricio,28.017,-97.5169,95.61,47,59,17.09,US,1723492419
457,gadani,25.1185,66.7299,83.1,86,14,11.99,PK,1723492419
458,tarko-sale,64.9225,77.785,51.78,86,89,6.58,RU,1723492419
459,es castell,39.8795,4.2854,81.28,83,0,5.75,ES,1723492419
460,stornoway,58.2093,-6.3865,57.16,85,75,20.71,GB,1723492419
461,piotrkow trybunalski,51.4055,19.7032,63.75,52,70,4.92,PL,1723492419
462,gereida,11.2811,25.1414,76.35,77,92,6.73,SD,1723492419
463,kailua-kona,19.6406,-155.9956,82.36,83,40,10.36,US,1723492419
464,nyurba,63.2842,118.3319,52.93,99,100,3.42,RU,1723492420
465,punta arenas,-53.15,-70.9167,41.11,93,75,6.91,CL,1723492420
466,cannonvale,-20.2833,148.7,61.72,87,9,4.79,AU,1723492420
467,panama city beach,30.1766,-85.8055,95.05,51,0,7.0,US,1723492420
468,butembo,0.15,29.2833,57.7,93,5,1.77,CD,1723492420
469,haldwani,29.2167,79.5167,77.11,88,52,4.85,IN,1723492420
470,jeju city,33.5097,126.5219,82.33,78,20,6.91,KR,1723492420
471,itaperucu,-25.22,-49.3478,55.42,32,1,5.06,BR,1723492420
472,taro,-8.3862,115.28,64.02,100,63,0.78,ID,1723492420
473,bani walid,31.7566,13.9942,80.76,55,0,13.8,LY,1723492420
474,yeosu,34.7546,127.6599,77.58,86,11,2.15,KR,1723492420
475,altamont,42.2068,-121.7372,81.79,40,20,9.22,US,1723492352
476,linghai,41.1653,121.3667,70.02,94,57,8.37,CN,1723492420
477,cidreira,-30.1811,-50.2056,51.94,57,15,18.1,BR,1723492420
478,bathurst,-33.4166,149.5806,49.96,99,82,3.4,AU,1723492421
479,egilsstadir,65.2653,-14.3948,49.91,87,100,17.27,IS,1723492421
480,yemva,62.59,50.8594,56.62,73,81,4.68,RU,1723492421
481,san luis de la loma,17.2706,-100.8939,87.73,66,78,7.36,MX,1723492421
482,williams lake,52.1415,-122.1445,86.05,38,20,2.3,CA,1723492214
483,raduzhny,62.0961,77.475,52.97,88,100,7.07,RU,1723492421
484,shagonar,51.5333,92.8,60.57,72,94,2.55,RU,1723492421
485,tumpat,6.1978,102.171,76.98,94,20,5.75,MY,1723492421
486,nsanje,-16.92,35.262,73.78,52,0,2.35,MW,1723492421
487,san miguel,13.4833,-88.1833,91.0,66,0,4.61,SV,1723492421
488,magadan,59.5667,150.8,52.66,80,99,9.51,RU,1723492421
489,toliara,-23.35,43.6667,69.73,71,0,6.31,MG,1723492421
490,zinjibar,13.1287,45.3807,89.76,54,95,2.39,YE,1723492421
491,baiti,13.745,-14.7482,81.68,75,32,10.4,SN,1723492421
492,qarqin,37.4185,66.0436,90.37,20,0,8.93,AF,1723492421
493,rio tercero,-32.173,-64.1141,65.3,18,1,13.09,AR,1723492421
494,nazyvayevsk,55.5698,71.3529,55.54,76,87,8.14,RU,1723492422
495,timimoun,29.2639,0.231,104.38,10,0,11.5,DZ,1723492422
496,al mansurah,31.0364,31.3807,75.25,70,0,5.91,EG,1723492422
497,nuku'alofa,-21.1333,-175.2,66.54,63,20,4.61,TO,1723492422
498,princeville,45.7668,-61.2985,80.62,54,75,5.75,CA,1723492422
499,greymouth,-42.4667,171.2,35.51,88,10,7.78,NZ,1723492422
500,san antonio oeste,-40.7319,-64.9477,66.38,25,99,21.56,AR,1723492422
501,visby,57.6409,18.296,64.62,68,0,4.61,SE,1723492422
502,berdigestyakh,62.0989,126.6992,56.82,85,15,4.16,RU,1723492422
503,saint-philippe,-21.3585,55.7679,71.69,72,46,12.97,RE,1723492422
504,quepos,9.4236,-84.1652,81.72,79,70,3.27,CR,1723492422
505,choibalsan,48.0667,114.5,65.14,60,0,6.93,MN,1723492422
506,dakhla,23.6848,-15.958,71.62,88,75,23.02,EH,1723492422
507,rio grande,-32.035,-52.0986,51.06,58,16,15.28,BR,1723492290
508,mata-utu,-13.2816,-176.1745,78.57,81,95,27.81,WF,1723492422
509,togur,58.3631,82.8265,53.01,72,74,4.9,RU,1723492422
510,kenai,60.5544,-151.2583,55.15,78,100,16.11,US,1723492422
511,maloye ganyushkino,46.6,49.2667,72.05,38,24,9.44,KZ,1723492423
512,lebork,54.5392,17.7501,52.43,95,22,0.89,PL,1723492423
513,kichmengskiy gorodok,59.9816,45.7854,54.68,82,58,6.35,RU,1723492423
514,machico,32.7,-16.7667,77.72,73,20,10.36,PT,1723492423
515,mongomo,1.6274,11.3135,68.74,98,98,2.62,GQ,1723492423
516,yanam,16.7333,82.2167,78.96,89,100,2.8,IN,1723492423
517,amos,48.5669,-78.1162,74.89,42,99,8.55,CA,1723492357
518,buarcos,40.166,-8.8768,66.9,97,19,11.32,PT,1723492423
519,el alto,-4.2714,-81.2147,67.71,70,20,15.12,PE,1723492423
520,uglich,57.5275,38.3317,54.73,94,100,3.0,RU,1723492423
521,glace bay,46.1969,-59.957,81.14,51,75,13.8,CA,1723492155
522,horta,38.5333,-28.6333,76.64,78,40,14.97,PT,1723492423
523,rawlins,41.7911,-107.2387,75.34,32,98,10.63,US,1723492423
524,sao vicente,-23.9631,-46.3919,66.16,26,0,5.75,BR,1723492423
525,antalaha,-14.9003,50.2788,68.41,83,11,6.62,MG,1723492423
526,shakhtersk,48.0625,38.5167,63.1,37,0,3.91,UA,1723492424
527,portland,45.5234,-122.6762,71.06,59,100,4.61,US,1723492063
528,bonthe,7.5264,-12.505,77.38,87,100,9.6,SL,1723492424
529,broken hill,-31.95,141.4333,53.56,55,0,7.49,AU,1723492424
530,bafra,41.5678,35.9069,71.15,83,0,5.3,TR,1723492424
531,russkiy kameshkir,52.8589,46.0892,56.8,77,100,17.16,RU,1723492424
532,uvalde,29.3669,-99.767,100.4,25,40,6.91,US,1723492424
533,krong kep,10.4833,104.3167,79.43,81,39,8.34,KH,1723492424
534,conduaga,8.862,117.4893,78.08,85,98,3.29,PH,1723492424
535,yorkton,51.2167,-102.4677,78.64,27,0,9.22,CA,1723492424
536,karratha,-20.7377,116.8463,69.31,56,95,9.19,AU,1723492424
537,sao joao da barra,-21.6403,-41.0511,69.3,62,100,29.77,BR,1723492424
538,dubrovnik,42.6481,18.0922,85.64,45,0,5.75,HR,1723492424
539,gubkinskiy,64.434,76.5026,53.55,88,98,8.59,RU,1723492424
540,bor,56.3567,44.0669,55.42,96,100,7.9,RU,1723492424
541,bay roberts,47.5999,-53.2648,76.14,76,100,8.99,CA,1723492424
542,vernon,50.2581,-119.2691,76.53,46,20,3.44,CA,1723492424
543,mar del plata,-38.0023,-57.5575,48.94,73,30,3.0,AR,1723492296
544,queenstown,-31.8976,26.8753,50.23,33,98,6.38,ZA,1723492425
545,krasnoarmeysk,51.0239,45.6969,62.08,55,60,16.8,RU,1723492425
546,zhanaozen,43.3,52.8,80.62,36,91,7.94,KZ,1723492425
547,itaituba,-4.2761,-55.9836,80.76,69,40,11.5,BR,1723492425
548,luau,-10.7073,22.2247,70.36,17,0,3.22,AO,1723492425
549,east london,-33.0153,27.9116,59.13,65,87,8.03,ZA,1723492425
550,jian'ou,27.0469,118.3253,75.18,99,100,1.79,CN,1723492425
551,zaragoza,41.6561,-0.8773,90.01,26,20,20.71,ES,1723492054
552,bontang,0.1333,117.5,77.11,87,99,7.61,ID,1723492425
553,benghazi,32.1167,20.0667,82.6,71,0,10.74,LY,1723492425
554,beebe,35.0706,-91.8796,87.08,58,100,4.63,US,1723492425
555,fort st. john,56.2499,-120.8529,76.89,41,0,6.91,CA,1723492425
556,kembe,4.6228,21.8865,72.09,88,4,3.2,CF,1723492425
557,khanu woralaksaburi,16.0617,99.8606,79.23,91,100,2.15,TH,1723492425
558,sao jose da coroa grande,-8.8978,-35.1478,77.34,78,0,8.77,BR,1723492426
559,novyy urgal,51.0736,132.5642,62.67,99,100,4.85,RU,1723492426
560,kresttsy,58.2452,32.5165,51.71,93,1,1.72,RU,1723492426
561,port hueneme,34.1478,-119.1951,82.92,64,0,11.5,US,1723492426
562,urzhar,47.093,81.6294,70.54,43,58,2.24,KZ,1723492426
563,cururupu,-1.8283,-44.8683,83.89,64,50,5.46,BR,1723492426
564,illizi,26.4833,8.4667,93.56,17,0,12.17,DZ,1723492426
565,gokavaram,17.2582,81.8508,80.74,84,77,0.81,IN,1723492426
566,tionk essil,12.7856,-16.5217,79.14,86,100,9.06,SN,1723492426
567,prado,-17.3411,-39.2208,76.91,86,60,11.07,BR,1723492426
568,fuglafjordur,62.244,-6.814,52.92,88,97,29.8,FO,1723492426
569,kasongo,-4.45,26.6667,79.2,50,12,3.69,CD,1723492426
570,isyangulovo,52.1909,52.1909,58.1,74,6,11.03,RU,1723492426
571,villarrica,-25.75,-56.4333,61.11,36,2,7.92,PY,1723492219
572,bereznik,62.8551,42.7072,56.95,70,74,4.74,RU,1723492427
573,malakal,9.5334,31.6605,74.79,90,100,2.26,SS,1723492427
574,ugoofaaru,5.6667,73.0,80.22,83,99,22.84,MV,1723492427
575,kolonia town,6.964,158.206,77.0,94,40,0.0,FM,1723492427
576,tobelo,1.7284,128.0095,79.03,82,100,2.57,ID,1723492427
577,meadow lakes,61.6247,-149.6011,51.62,93,100,2.93,US,1723492227
578,fontanelas,38.8472,-9.4372,71.17,80,20,26.46,PT,1723492427
579,vytegra,61.0064,36.4481,57.16,91,100,1.86,RU,1723492427
580,safford,32.834,-109.7076,97.72,40,0,19.57,US,1723492427
581,dolores,-36.3132,-57.6792,51.62,56,6,4.29,AR,1723492427
582,bechar,31.6167,-2.2167,98.92,12,40,17.27,DZ,1723492427
583,garh maharaja,30.8339,71.9053,92.39,53,0,4.34,PK,1723492427
584,abashiri,44.0213,144.2697,71.4,98,61,11.81,JP,1723492136
585,kirovgrad,57.4297,60.0597,54.61,99,100,2.98,RU,1723492428
586,lishu,43.3047,124.3278,67.87,96,97,6.58,CN,1723492428
587,box elder,41.5005,-112.8764,75.2,56,94,2.84,US,1723492425
588,nabire,-3.3667,135.4833,74.39,95,45,3.71,ID,1723492428
589,miquelon,47.0975,-56.3814,63.75,89,66,14.76,PM,1723492428
590,guarapari,-20.6667,-40.4975,72.86,72,84,15.03,BR,1723492428
591,santa cruz,-17.8,-63.1667,78.85,19,82,19.57,BO,1723492262
592,bubaque,11.2833,-15.8333,79.75,87,38,13.78,GW,1723492428
593,schweizer-reneke,-27.1887,25.3293,53.46,27,11,7.31,ZA,1723492428
594,piacabucu,-10.4056,-36.4344,77.2,82,0,9.28,BR,1723492428
595,beira,-19.8436,34.8389,73.49,88,0,8.05,MZ,1723492428
596,caleta olivia,-46.4393,-67.5281,57.51,53,100,22.06,AR,1723492428
597,kawalu,-7.3817,108.2082,64.11,97,19,1.03,ID,1723492428
598,akureyri,65.6835,-18.0878,51.73,71,100,6.91,IS,1723492428
599,vilyuysk,63.7553,121.6247,50.49,92,100,8.97,RU,1723492428
600,aykhal,66.0,111.5,42.35,97,100,19.57,RU,1723492429
601,tual,-5.6667,132.75,77.13,83,85,20.31,ID,1723492429
602,san clemente del tuyu,-36.3569,-56.7235,49.24,63,18,2.89,AR,1723492429
603,taulaga,-11.0553,-171.0883,80.74,80,50,22.86,AS,1723492429
